[
  {
    "IATA": "YYZ",
    "Airport Name": "Toronto Pearson International Airport",
    "City": "Toronto",
    "Latitude": 43.6777,
    "Longitude": -79.6248
  },
  {
    "IATA": "YVR",
    "Airport Name": "Vancouver International Airport",
    "City": "Vancouver",
    "Latitude": 49.1947,
    "Longitude": -123.1792
  },
  {
    "IATA": "JFK",
    "Airport Name": "John F. Kennedy International Airport",
    "City": "New York",
    "Latitude": 40.6413,
    "Longitude": -73.7781
  },
  {
    "IATA": "LAX",
    "Airport Name": "Los Angeles International Airport",
    "City": "Los Angeles",
    "Latitude": 33.9416,
    "Longitude": -118.4085
  },
  {
    "IATA": "ORD",
    "Airport Name": "O'Hare International Airport",
    "City": "Chicago",
    "Latitude": 40.9762,
    "Longitude": -87.9073
  },
  {
    "IATA": "DFW",
    "Airport Name": "Dallas/Fort Worth International Airport",
    "City": "Dallas",
    "Latitude": 32.8998,
    "Longitude": -97.0403
  },
  {
    "IATA": "BOS",
    "Airport Name": "Boston Logan International Airport",
    "City": "Boston",
    "Latitude": 42.3656,
    "Longitude": -71.0096
  },
  {
    "IATA": "DCA",
    "Airport Name": "Ronald Reagan Washington National Airport",
    "City": "Washington",
    "Latitude": 38.8512,
    "Longitude": -77.0402
  },
  {
    "IATA": "LHR",
    "Airport Name": "Heathrow Airport",
    "City": "London",
    "Latitude": 51.47,
    "Longitude": -0.4543
  },
  {
    "IATA": "CDG",
    "Airport Name": "Charles de Gaulle Airport",
    "City": "Paris",
    "Latitude": 49.0097,
    "Longitude": 2.5479
  },
  {
    "IATA": "AMS",
    "Airport Name": "Schiphol Airport",
    "City": "Amsterdam",
    "Latitude": 52.3105,
    "Longitude": 4.7683
  },
  {
    "IATA": "FRA",
    "Airport Name": "Frankfurt am Main Airport",
    "City": "Frankfurt",
    "Latitude": 50.0379,
    "Longitude": 8.5622
  },
  {
    "IATA": "MAD",
    "Airport Name": "Adolfo Su\u00e1rez Madrid\u2013Barajas Airport",
    "City": "Madrid",
    "Latitude": 40.4722,
    "Longitude": -3.5608
  },
  {
    "IATA": "ZRH",
    "Airport Name": "Zurich Airport",
    "City": "Zurich",
    "Latitude": 47.4581,
    "Longitude": 8.555
  },
  {
    "IATA": "LIS",
    "Airport Name": "Humberto Delgado Airport",
    "City": "Lisbon",
    "Latitude": 38.7742,
    "Longitude": -9.1342
  },
  {
    "IATA": "VIE",
    "Airport Name": "Vienna International Airport",
    "City": "Vienna",
    "Latitude": 48.1103,
    "Longitude": 16.5697
  },
  {
    "IATA": "PRG",
    "Airport Name": "V\u00e1clav Havel Airport Prague",
    "City": "Prague",
    "Latitude": 50.1008,
    "Longitude": 14.2632
  },
  {
    "IATA": "WAW",
    "Airport Name": "Warsaw Chopin Airport",
    "City": "Warsaw",
    "Latitude": 52.1657,
    "Longitude": 20.9671
  },
  {
    "IATA": "BUD",
    "Airport Name": "Budapest Ferenc Liszt International",
    "City": "Budapest",
    "Latitude": 47.4298,
    "Longitude": 19.261
  },
  {
    "IATA": "SVO",
    "Airport Name": "Sheremetyevo International Airport",
    "City": "Moscow",
    "Latitude": 55.9728,
    "Longitude": 37.4147
  },
  {
    "IATA": "FCO",
    "Airport Name": "Leonardo da Vinci International Airport",
    "City": "Rome",
    "Latitude": 42.3601,
    "Longitude": 12.2429
  },
  {
    "IATA": "ARN",
    "Airport Name": "Stockholm Arlanda Airport",
    "City": "Stockholm",
    "Latitude": 59.6519,
    "Longitude": 17.9186
  },
  {
    "IATA": "DXB",
    "Airport Name": "Dubai International Airport",
    "City": "Dubai",
    "Latitude": 25.2532,
    "Longitude": 55.3657
  },
  {
    "IATA": "DOH",
    "Airport Name": "Hamad International Airport",
    "City": "Doha",
    "Latitude": 25.2731,
    "Longitude": 51.608
  },
  {
    "IATA": "TLV",
    "Airport Name": "Ben Gurion Airport",
    "City": "Tel Aviv",
    "Latitude": 32.0004,
    "Longitude": 34.8706
  },
  {
    "IATA": "GRU",
    "Airport Name": "S\u00e3o Paulo/Guarulhos International Airport",
    "City": "S\u00e3o Paulo",
    "Latitude": -23.4356,
    "Longitude": -46.4731
  },
  {
    "IATA": "EZE",
    "Airport Name": "Ezeiza International Airport",
    "City": "Buenos Aires",
    "Latitude": -34.8222,
    "Longitude": -58.5358
  },
  {
    "IATA": "BOG",
    "Airport Name": "El Dorado International Airport",
    "City": "Bogot\u00e1",
    "Latitude": 4.7016,
    "Longitude": -74.1469
  },
  {
    "IATA": "LIM",
    "Airport Name": "Jorge Ch\u00e1vez International Airport",
    "City": "Lima",
    "Latitude": -12.0219,
    "Longitude": -77.1143
  },
  {
    "IATA": "SCL",
    "Airport Name": "Arturo Merino Ben\u00edtez International Airport",
    "City": "Santiago",
    "Latitude": -33.3928,
    "Longitude": -70.7856
  },
  {
    "IATA": "GIG",
    "Airport Name": "Rio de Janeiro/Gale\u00e3o International Airport",
    "City": "Rio de Janeiro",
    "Latitude": -22.8099,
    "Longitude": -43.2506
  },
  {
    "IATA": "CAI",
    "Airport Name": "Cairo International Airport",
    "City": "Cairo",
    "Latitude": 30.1219,
    "Longitude": 31.4056
  },
  {
    "IATA": "JNB",
    "Airport Name": "O.R. Tambo International Airport",
    "City": "Johannesburg",
    "Latitude": -26.1392,
    "Longitude": 28.246
  },
  {
    "IATA": "CMN",
    "Airport Name": "Mohammed V International Airport",
    "City": "Casablanca",
    "Latitude": 33.3675,
    "Longitude": -7.5897
  },
  {
    "IATA": "NBO",
    "Airport Name": "Jomo Kenyatta International Airport",
    "City": "Nairobi",
    "Latitude": -1.3192,
    "Longitude": 36.9278
  },
  {
    "IATA": "NRT",
    "Airport Name": "Narita International Airport",
    "City": "Tokyo",
    "Latitude": 35.7647,
    "Longitude": 140.3864
  },
  {
    "IATA": "ICN",
    "Airport Name": "Incheon International Airport",
    "City": "Seoul",
    "Latitude": 37.4602,
    "Longitude": 126.4407
  },
  {
    "IATA": "PEK",
    "Airport Name": "Beijing Capital International Airport",
    "City": "Beijing",
    "Latitude": 39.5098,
    "Longitude": 116.4105
  },
  {
    "IATA": "PVG",
    "Airport Name": "Shanghai Pudong International Airport",
    "City": "Shanghai",
    "Latitude": 31.1443,
    "Longitude": 121.8083
  },
  {
    "IATA": "SIN",
    "Airport Name": "Singapore Changi Airport",
    "City": "Singapore",
    "Latitude": 1.3644,
    "Longitude": 103.9915
  },
  {
    "IATA": "BKK",
    "Airport Name": "Suvarnabhumi Airport",
    "City": "Bangkok",
    "Latitude": 13.69,
    "Longitude": 100.7501
  },
  {
    "IATA": "DEL",
    "Airport Name": "Indira Gandhi International Airport",
    "City": "New Delhi",
    "Latitude": 28.5562,
    "Longitude": 77.1
  },
  {
    "IATA": "MNL",
    "Airport Name": "Ninoy Aquino International Airport",
    "City": "Manila",
    "Latitude": 14.5086,
    "Longitude": 121.0194
  },
  {
    "IATA": "HKG",
    "Airport Name": "Hong Kong International Airport",
    "City": "Hong Kong",
    "Latitude": 22.308,
    "Longitude": 113.9185
  },
  {
    "IATA": "KUL",
    "Airport Name": "Kuala Lumpur International Airport",
    "City": "Kuala Lumpur",
    "Latitude": 2.7456,
    "Longitude": 101.7072
  },
  {
    "IATA": "CGK",
    "Airport Name": "Soekarno-Hatta International Airport",
    "City": "Jakarta",
    "Latitude": -6.1256,
    "Longitude": 106.6558
  },
  {
    "IATA": "BOM",
    "Airport Name": "Chhatrapati Shivaji Maharaj International Airport",
    "City": "Mumbai",
    "Latitude": 19.0896,
    "Longitude": 72.8656
  },
  {
    "IATA": "HAN",
    "Airport Name": "Noi Bai International Airport",
    "City": "Hanoi",
    "Latitude": 21.2187,
    "Longitude": 105.8047
  },
  {
    "IATA": "TPE",
    "Airport Name": "Taoyuan International Airport",
    "City": "Taipei",
    "Latitude": 25.0777,
    "Longitude": 121.2322
  },
  {
    "IATA": "IKA",
    "Airport Name": "Imam Khomeini International Airport",
    "City": "Tehran",
    "Latitude": 35.4161,
    "Longitude": 51.1522
  },
  {
    "IATA": "KIX",
    "Airport Name": "Kansai International Airport",
    "City": "Osaka",
    "Latitude": 34.432,
    "Longitude": 135.2304
  },
  {
    "IATA": "BLR",
    "Airport Name": "Kempegowda International Airport",
    "City": "Bangalore",
    "Latitude": 13.1986,
    "Longitude": 77.7066
  },
  {
    "IATA": "CAN",
    "Airport Name": "Guangzhou Baiyun International Airport",
    "City": "Guangzhou",
    "Latitude": 23.3924,
    "Longitude": 113.2988
  },
  {
    "IATA": "CTU",
    "Airport Name": "Chengdu Shuangliu International Airport",
    "City": "Chengdu",
    "Latitude": 30.5785,
    "Longitude": 103.9467
  },
  {
    "IATA": "SYD",
    "Airport Name": "Sydney Kingsford Smith Airport",
    "City": "Sydney",
    "Latitude": -33.9399,
    "Longitude": 151.1753
  },
  {
    "IATA": "PER",
    "Airport Name": "Perth Airport",
    "City": "Perth",
    "Latitude": -31.9403,
    "Longitude": 115.9669
  },
  {
    "IATA": "AKL",
    "Airport Name": "Auckland Airport",
    "City": "Auckland",
    "Latitude": -37.0082,
    "Longitude": 174.785
  }
]